[[{"id":"65823","name":"Medstuff Inc","address":"10382 Ralston Rd","city":"Arvada","state":"CO","zip":"80004    ","phone":"(303) 403-4142","lat":"39.8117082","lng":"-105.1138913","highlight":"0","published":"1","dist":0.733143641056,
{"id":"65797","name":"Wadsworth Medical Arts Pharmacy Inc","address":"5656 Ward Way Unit A","city":"Arvada","state":"CO","zip":"80002-1300","phone":"(303) 420-7979","lat":"39.80027","lng":"-105.138456","highlight":"0","published":"1","dist":2.37706089911,
{"id":"2505","name":"CLEARSPRING PHARMACY","address":"8550 W 38TH AVE","city":"WHEAT RIDGE","state":"CO","zip":"80033","phone":"","lat":"39.7693256","lng":"-105.0920970","highlight":"1","published":"1","dist":5.743579612,
{"id":"18693","name":"EXEMPLA LUTHERAN PHARMACY","address":"8300 WEST 38TH AVE","city":"WHEAT RIDGE","state":"CO","zip":"80033","phone":"","lat":"39.7678050","lng":"-105.0890440","highlight":"0","published":"1","dist":6.0081411367,
{"id":"65820","name":"Pioneer Pharmacy Llc","address":"3895 Upham St","city":"Wheatridge","state":"CO","zip":"80033-3032","phone":"(303) 252-7990","lat":"39.7709299","lng":"-105.0779293","highlight":"0","published":"1","dist":6.19703044311,
{"id":"2569","name":"WHEATRIDGE PROF PHARMACY","address":"6650 W 38TH AVE","city":"WHEAT RIDGE","state":"CO","zip":"80033","phone":"","lat":"39.7691170","lng":"-105.0700720","highlight":"0","published":"1","dist":6.76464575115,
{"id":"65824","name":"Shaver Ltc Pharmacy Inc","address":"8501 Turnpike Dr","city":"Westminster","state":"CO","zip":"80031    ","phone":"(303) 430-6554","lat":"39.850401","lng":"-105.050039","highlight":"0","published":"1","dist":7.07897565009,
{"id":"2661","name":"BLUE SPRUCE PHARMACY","address":"9485 W COLFAX AVE","city":"LAKEWOOD","state":"CO","zip":"80215","phone":"","lat":"39.7408390","lng":"-105.1030540","highlight":"0","published":"1","dist":8.5158795857,
{"id":"65844","name":"Eden International","address":"10955 Westmoor Dr.","city":"Broomfield","state":"CO","zip":"80021    ","phone":"(303) 379-2100","lat":"39.899309","lng":"-105.121179","highlight":"0","published":"1","dist":9.2304285946,
{"id":"65815","name":"Clinica Campesina Family Health Services","address":"1701 W 72nd Ave","city":"Denver","state":"CO","zip":"80221    ","phone":"(303) 412-8180","lat":"39.8274676","lng":"-105.0077835","highlight":"0","published":"1","dist":9.66768312722,
{"id":"2633","name":"PEOPLES PHARMACY","address":"255 UNION BLVD","city":"LAKEWOOD","state":"CO","zip":"80228","phone":"","lat":"39.7198650","lng":"-105.1333320","highlight":"0","published":"1","dist":10.7832745604,
{"id":"65821","name":"Genoa Healthcare Of Co Llc","address":"8989 Huron St Ste 204","city":"Thornton","state":"CO","zip":"80260    ","phone":"(303) 487-1146","lat":"39.8591089","lng":"-104.997231","highlight":"0","published":"1","dist":11.5161398118,
{"id":"18672","name":"BELMAR PHARMACY","address":"12860 W CEDAR DR","city":"LAKEWOOD","state":"CO","zip":"80228","phone":"","lat":"39.7115260","lng":"-105.1426110","highlight":"0","published":"1","dist":11.8091302015,
{"id":"2620","name":"UNION SQUARE PHARMACY AT BELMAR","address":"8015 W ALAMEDA","city":"LAKEWOOD","state":"CO","zip":"80226","phone":"","lat":"39.7116510","lng":"-105.0867500","highlight":"1","published":"1","dist":11.979694598,
{"id":"18688","name":"ADVANCED CARE PROFESSIONAL PHCY","address":"2789 W ALAMEDA AVE","city":"DENVER","state":"CO","zip":"80219","phone":"","lat":"39.7111901","lng":"-105.0223406","highlight":"0","published":"1","dist":14.3650699707,
{"id":"65847","name":"St Joseph Hospital","address":"1825 Marion St","city":"Denver","state":"CO","zip":"80218-1122","phone":"(303) 318-3490","lat":"39.74537","lng":"-104.972737","highlight":"0","published":"1","dist":14.8550356867,
{"id":"2628","name":"COLORADO PHARMACY","address":"1245 E COLFAX","city":"DENVER","state":"CO","zip":"80218","phone":"","lat":"39.7401840","lng":"-104.9712570","highlight":"0","published":"1","dist":15.2745997664,
{"id":"18689","name":"AVISTA FAMILY PHARMACY","address":"90 HEALTH PARK DR","city":"LOUISVILLE","state":"CO","zip":"80027","phone":"","lat":"39.9514810","lng":"-105.1524850","highlight":"0","published":"1","dist":15.2838644794,
{"id":"2650","name":"ASIA PHARMACY","address":"1035 S FEDERAL BLVD","city":"DENVER","state":"CO","zip":"80219","phone":"","lat":"39.6977339","lng":"-105.0255200","highlight":"0","published":"1","dist":15.4634380818,
{"id":"2508","name":"CERNELL PHARMACY","address":"2190 E 18TH AVE","city":"DENVER","state":"CO","zip":"80206","phone":"","lat":"39.7445420","lng":"-104.9613460","highlight":"0","published":"1","dist":15.7349668529}],[39.8163023,-105.1200482,null]]
[[{"id":"65820","name":"Pioneer Pharmacy Llc","address":"3895 Upham St","city":"Wheatridge","state":"CO","zip":"80033-3032","phone":"(303) 252-7990","lat":"39.7709299","lng":"-105.0779293","highlight":"0","published":"1","dist":2.28522090602,
{"id":"2505","name":"CLEARSPRING PHARMACY","address":"8550 W 38TH AVE","city":"WHEAT RIDGE","state":"CO","zip":"80033","phone":"","lat":"39.7693256","lng":"-105.0920970","highlight":"1","published":"1","dist":2.45964039411,
{"id":"18693","name":"EXEMPLA LUTHERAN PHARMACY","address":"8300 WEST 38TH AVE","city":"WHEAT RIDGE","state":"CO","zip":"80033","phone":"","lat":"39.7678050","lng":"-105.0890440","highlight":"0","published":"1","dist":2.57575294329,
{"id":"2569","name":"WHEATRIDGE PROF PHARMACY","address":"6650 W 38TH AVE","city":"WHEAT RIDGE","state":"CO","zip":"80033","phone":"","lat":"39.7691170","lng":"-105.0700720","highlight":"0","published":"1","dist":2.72219669223,
{"id":"65823","name":"Medstuff Inc","address":"10382 Ralston Rd","city":"Arvada","state":"CO","zip":"80004    ","phone":"(303) 403-4142","lat":"39.8117082","lng":"-105.1138913","highlight":"0","published":"1","dist":3.39593359718,
{"id":"65797","name":"Wadsworth Medical Arts Pharmacy Inc","address":"5656 Ward Way Unit A","city":"Arvada","state":"CO","zip":"80002-1300","phone":"(303) 420-7979","lat":"39.80027","lng":"-105.138456","highlight":"0","published":"1","dist":4.69051980951,
{"id":"2661","name":"BLUE SPRUCE PHARMACY","address":"9485 W COLFAX AVE","city":"LAKEWOOD","state":"CO","zip":"80215","phone":"","lat":"39.7408390","lng":"-105.1030540","highlight":"0","published":"1","dist":5.76180709072,
{"id":"65824","name":"Shaver Ltc Pharmacy Inc","address":"8501 Turnpike Dr","city":"Westminster","state":"CO","zip":"80031    ","phone":"(303) 430-6554","lat":"39.850401","lng":"-105.050039","highlight":"0","published":"1","dist":7.27217321569,
{"id":"65815","name":"Clinica Campesina Family Health Services","address":"1701 W 72nd Ave","city":"Denver","state":"CO","zip":"80221    ","phone":"(303) 412-8180","lat":"39.8274676","lng":"-105.0077835","highlight":"0","published":"1","dist":7.75441635325,
{"id":"2620","name":"UNION SQUARE PHARMACY AT BELMAR","address":"8015 W ALAMEDA","city":"LAKEWOOD","state":"CO","zip":"80226","phone":"","lat":"39.7116510","lng":"-105.0867500","highlight":"1","published":"1","dist":8.79745948886,
{"id":"2633","name":"PEOPLES PHARMACY","address":"255 UNION BLVD","city":"LAKEWOOD","state":"CO","zip":"80228","phone":"","lat":"39.7198650","lng":"-105.1333320","highlight":"0","published":"1","dist":8.90117633757,
{"id":"18672","name":"BELMAR PHARMACY","address":"12860 W CEDAR DR","city":"LAKEWOOD","state":"CO","zip":"80228","phone":"","lat":"39.7115260","lng":"-105.1426110","highlight":"0","published":"1","dist":10.0945705654,
{"id":"18688","name":"ADVANCED CARE PROFESSIONAL PHCY","address":"2789 W ALAMEDA AVE","city":"DENVER","state":"CO","zip":"80219","phone":"","lat":"39.7111901","lng":"-105.0223406","highlight":"0","published":"1","dist":10.3413014847,
{"id":"65821","name":"Genoa Healthcare Of Co Llc","address":"8989 Huron St Ste 204","city":"Thornton","state":"CO","zip":"80260    ","phone":"(303) 487-1146","lat":"39.8591089","lng":"-104.997231","highlight":"0","published":"1","dist":10.6726865725,
{"id":"65847","name":"St Joseph Hospital","address":"1825 Marion St","city":"Denver","state":"CO","zip":"80218-1122","phone":"(303) 318-3490","lat":"39.74537","lng":"-104.972737","highlight":"0","published":"1","dist":10.8389269953,
{"id":"2628","name":"COLORADO PHARMACY","address":"1245 E COLFAX","city":"DENVER","state":"CO","zip":"80218","phone":"","lat":"39.7401840","lng":"-104.9712570","highlight":"0","published":"1","dist":11.2287675541,
{"id":"2650","name":"ASIA PHARMACY","address":"1035 S FEDERAL BLVD","city":"DENVER","state":"CO","zip":"80219","phone":"","lat":"39.6977339","lng":"-105.0255200","highlight":"0","published":"1","dist":11.5250029967,
{"id":"2508","name":"CERNELL PHARMACY","address":"2190 E 18TH AVE","city":"DENVER","state":"CO","zip":"80206","phone":"","lat":"39.7445420","lng":"-104.9613460","highlight":"0","published":"1","dist":11.7493407745,
{"id":"65844","name":"Eden International","address":"10955 Westmoor Dr.","city":"Broomfield","state":"CO","zip":"80021    ","phone":"(303) 379-2100","lat":"39.899309","lng":"-105.121179","highlight":"0","published":"1","dist":12.4600596434,
{"id":"2643","name":"CLEARSPRING PHARMACY","address":"201 UNIVERSITY BLVD","city":"DENVER","state":"CO","zip":"80206","phone":"","lat":"39.7200960","lng":"-104.9598010","highlight":"1","published":"1","dist":13.2748630602}],[39.7907566,-105.0849687,null]]
[[{"id":"65823","name":"Medstuff Inc","address":"10382 Ralston Rd","city":"Arvada","state":"CO","zip":"80004    ","phone":"(303) 403-4142","lat":"39.8117082","lng":"-105.1138913","highlight":"0","published":"1","dist":2.4207350781,
{"id":"65820","name":"Pioneer Pharmacy Llc","address":"3895 Upham St","city":"Wheatridge","state":"CO","zip":"80033-3032","phone":"(303) 252-7990","lat":"39.7709299","lng":"-105.0779293","highlight":"0","published":"1","dist":3.39301064059,
{"id":"2505","name":"CLEARSPRING PHARMACY","address":"8550 W 38TH AVE","city":"WHEAT RIDGE","state":"CO","zip":"80033","phone":"","lat":"39.7693256","lng":"-105.0920970","highlight":"1","published":"1","dist":3.41554107064,
{"id":"18693","name":"EXEMPLA LUTHERAN PHARMACY","address":"8300 WEST 38TH AVE","city":"WHEAT RIDGE","state":"CO","zip":"80033","phone":"","lat":"39.7678050","lng":"-105.0890440","highlight":"0","published":"1","dist":3.58085256917,
{"id":"2569","name":"WHEATRIDGE PROF PHARMACY","address":"6650 W 38TH AVE","city":"WHEAT RIDGE","state":"CO","zip":"80033","phone":"","lat":"39.7691170","lng":"-105.0700720","highlight":"0","published":"1","dist":3.83303585619,
{"id":"65797","name":"Wadsworth Medical Arts Pharmacy Inc","address":"5656 Ward Way Unit A","city":"Arvada","state":"CO","zip":"80002-1300","phone":"(303) 420-7979","lat":"39.80027","lng":"-105.138456","highlight":"0","published":"1","dist":4.1396594646,
{"id":"65824","name":"Shaver Ltc Pharmacy Inc","address":"8501 Turnpike Dr","city":"Westminster","state":"CO","zip":"80031    ","phone":"(303) 430-6554","lat":"39.850401","lng":"-105.050039","highlight":"0","published":"1","dist":6.56157891543,
{"id":"2661","name":"BLUE SPRUCE PHARMACY","address":"9485 W COLFAX AVE","city":"LAKEWOOD","state":"CO","zip":"80215","phone":"","lat":"39.7408390","lng":"-105.1030540","highlight":"0","published":"1","dist":6.67233932219,
{"id":"65815","name":"Clinica Campesina Family Health Services","address":"1701 W 72nd Ave","city":"Denver","state":"CO","zip":"80221    ","phone":"(303) 412-8180","lat":"39.8274676","lng":"-105.0077835","highlight":"0","published":"1","dist":7.6577432928,
{"id":"2633","name":"PEOPLES PHARMACY","address":"255 UNION BLVD","city":"LAKEWOOD","state":"CO","zip":"80228","phone":"","lat":"39.7198650","lng":"-105.1333320","highlight":"0","published":"1","dist":9.64978318552,
{"id":"2620","name":"UNION SQUARE PHARMACY AT BELMAR","address":"8015 W ALAMEDA","city":"LAKEWOOD","state":"CO","zip":"80226","phone":"","lat":"39.7116510","lng":"-105.0867500","highlight":"1","published":"1","dist":9.82788823181,
{"id":"65821","name":"Genoa Healthcare Of Co Llc","address":"8989 Huron St Ste 204","city":"Thornton","state":"CO","zip":"80260    ","phone":"(303) 487-1146","lat":"39.8591089","lng":"-104.997231","highlight":"0","published":"1","dist":10.2933828679,
{"id":"18672","name":"BELMAR PHARMACY","address":"12860 W CEDAR DR","city":"LAKEWOOD","state":"CO","zip":"80228","phone":"","lat":"39.7115260","lng":"-105.1426110","highlight":"0","published":"1","dist":10.8171228045,
{"id":"65844","name":"Eden International","address":"10955 Westmoor Dr.","city":"Broomfield","state":"CO","zip":"80021    ","phone":"(303) 379-2100","lat":"39.899309","lng":"-105.121179","highlight":"0","published":"1","dist":11.3589072685,
{"id":"18688","name":"ADVANCED CARE PROFESSIONAL PHCY","address":"2789 W ALAMEDA AVE","city":"DENVER","state":"CO","zip":"80219","phone":"","lat":"39.7111901","lng":"-105.0223406","highlight":"0","published":"1","dist":11.4443148355,
{"id":"65847","name":"St Joseph Hospital","address":"1825 Marion St","city":"Denver","state":"CO","zip":"80218-1122","phone":"(303) 318-3490","lat":"39.74537","lng":"-104.972737","highlight":"0","published":"1","dist":11.7189698334,
{"id":"2628","name":"COLORADO PHARMACY","address":"1245 E COLFAX","city":"DENVER","state":"CO","zip":"80218","phone":"","lat":"39.7401840","lng":"-104.9712570","highlight":"0","published":"1","dist":12.1339039044,
{"id":"2508","name":"CERNELL PHARMACY","address":"2190 E 18TH AVE","city":"DENVER","state":"CO","zip":"80206","phone":"","lat":"39.7445420","lng":"-104.9613460","highlight":"0","published":"1","dist":12.6064610764,
{"id":"2650","name":"ASIA PHARMACY","address":"1035 S FEDERAL BLVD","city":"DENVER","state":"CO","zip":"80219","phone":"","lat":"39.6977339","lng":"-105.0255200","highlight":"0","published":"1","dist":12.6371978753,
{"id":"2643","name":"CLEARSPRING PHARMACY","address":"201 UNIVERSITY BLVD","city":"DENVER","state":"CO","zip":"80206","phone":"","lat":"39.7200960","lng":"-104.9598010","highlight":"1","published":"1","dist":14.240861204}],[39.8,-105.09,null]]
[[{"id":"65824","name":"Shaver Ltc Pharmacy Inc","address":"8501 Turnpike Dr","city":"Westminster","state":"CO","zip":"80031    ","phone":"(303) 430-6554","lat":"39.850401","lng":"-105.050039","highlight":"0","published":"1","dist":3.87128321764,
{"id":"65823","name":"Medstuff Inc","address":"10382 Ralston Rd","city":"Arvada","state":"CO","zip":"80004    ","phone":"(303) 403-4142","lat":"39.8117082","lng":"-105.1138913","highlight":"0","published":"1","dist":4.03425279519,
{"id":"65815","name":"Clinica Campesina Family Health Services","address":"1701 W 72nd Ave","city":"Denver","state":"CO","zip":"80221    ","phone":"(303) 412-8180","lat":"39.8274676","lng":"-105.0077835","highlight":"0","published":"1","dist":5.19610930129,
{"id":"65820","name":"Pioneer Pharmacy Llc","address":"3895 Upham St","city":"Wheatridge","state":"CO","zip":"80033-3032","phone":"(303) 252-7990","lat":"39.7709299","lng":"-105.0779293","highlight":"0","published":"1","dist":5.33757848892,
{"id":"2569","name":"WHEATRIDGE PROF PHARMACY","address":"6650 W 38TH AVE","city":"WHEAT RIDGE","state":"CO","zip":"80033","phone":"","lat":"39.7691170","lng":"-105.0700720","highlight":"0","published":"1","dist":5.46792873754,
{"id":"2505","name":"CLEARSPRING PHARMACY","address":"8550 W 38TH AVE","city":"WHEAT RIDGE","state":"CO","zip":"80033","phone":"","lat":"39.7693256","lng":"-105.0920970","highlight":"1","published":"1","dist":5.8339765715,
{"id":"18693","name":"EXEMPLA LUTHERAN PHARMACY","address":"8300 WEST 38TH AVE","city":"WHEAT RIDGE","state":"CO","zip":"80033","phone":"","lat":"39.7678050","lng":"-105.0890440","highlight":"0","published":"1","dist":5.90527621665,
{"id":"65797","name":"Wadsworth Medical Arts Pharmacy Inc","address":"5656 Ward Way Unit A","city":"Arvada","state":"CO","zip":"80002-1300","phone":"(303) 420-7979","lat":"39.80027","lng":"-105.138456","highlight":"0","published":"1","dist":6.38765478813,
{"id":"65821","name":"Genoa Healthcare Of Co Llc","address":"8989 Huron St Ste 204","city":"Thornton","state":"CO","zip":"80260    ","phone":"(303) 487-1146","lat":"39.8591089","lng":"-104.997231","highlight":"0","published":"1","dist":7.52117287081,
{"id":"2661","name":"BLUE SPRUCE PHARMACY","address":"9485 W COLFAX AVE","city":"LAKEWOOD","state":"CO","zip":"80215","phone":"","lat":"39.7408390","lng":"-105.1030540","highlight":"0","published":"1","dist":9.13006103897,
{"id":"65844","name":"Eden International","address":"10955 Westmoor Dr.","city":"Broomfield","state":"CO","zip":"80021    ","phone":"(303) 379-2100","lat":"39.899309","lng":"-105.121179","highlight":"0","published":"1","dist":10.1137686933,
{"id":"65847","name":"St Joseph Hospital","address":"1825 Marion St","city":"Denver","state":"CO","zip":"80218-1122","phone":"(303) 318-3490","lat":"39.74537","lng":"-104.972737","highlight":"0","published":"1","dist":11.452058652,
{"id":"2628","name":"COLORADO PHARMACY","address":"1245 E COLFAX","city":"DENVER","state":"CO","zip":"80218","phone":"","lat":"39.7401840","lng":"-104.9712570","highlight":"0","published":"1","dist":11.9539212776,
{"id":"2620","name":"UNION SQUARE PHARMACY AT BELMAR","address":"8015 W ALAMEDA","city":"LAKEWOOD","state":"CO","zip":"80226","phone":"","lat":"39.7116510","lng":"-105.0867500","highlight":"1","published":"1","dist":11.9676564451,
{"id":"2508","name":"CERNELL PHARMACY","address":"2190 E 18TH AVE","city":"DENVER","state":"CO","zip":"80206","phone":"","lat":"39.7445420","lng":"-104.9613460","highlight":"0","published":"1","dist":12.2209528797,
{"id":"2633","name":"PEOPLES PHARMACY","address":"255 UNION BLVD","city":"LAKEWOOD","state":"CO","zip":"80228","phone":"","lat":"39.7198650","lng":"-105.1333320","highlight":"0","published":"1","dist":12.3046133515,
{"id":"18688","name":"ADVANCED CARE PROFESSIONAL PHCY","address":"2789 W ALAMEDA AVE","city":"DENVER","state":"CO","zip":"80219","phone":"","lat":"39.7111901","lng":"-105.0223406","highlight":"0","published":"1","dist":12.5127863599,
{"id":"18672","name":"BELMAR PHARMACY","address":"12860 W CEDAR DR","city":"LAKEWOOD","state":"CO","zip":"80228","phone":"","lat":"39.7115260","lng":"-105.1426110","highlight":"0","published":"1","dist":13.4951393692,
{"id":"65795","name":"National Jewish Health Pharmacy","address":"1400 Jackson St","city":"Denver","state":"CO","zip":"80206-2762","phone":"(303) 398-1582","lat":"39.739206","lng":"-104.941874","highlight":"0","published":"1","dist":13.8699328665,
{"id":"2650","name":"ASIA PHARMACY","address":"1035 S FEDERAL BLVD","city":"DENVER","state":"CO","zip":"80219","phone":"","lat":"39.6977339","lng":"-105.0255200","highlight":"0","published":"1","dist":13.8713589843}],[39.8182494,-105.0674317,null]]
[[{"id":"65844","name":"Eden International","address":"10955 Westmoor Dr.","city":"Broomfield","state":"CO","zip":"80021    ","phone":"(303) 379-2100","lat":"39.899309","lng":"-105.121179","highlight":"0","published":"1","dist":5.00960199552,
{"id":"65823","name":"Medstuff Inc","address":"10382 Ralston Rd","city":"Arvada","state":"CO","zip":"80004    ","phone":"(303) 403-4142","lat":"39.8117082","lng":"-105.1138913","highlight":"0","published":"1","dist":5.0485591896,
{"id":"65797","name":"Wadsworth Medical Arts Pharmacy Inc","address":"5656 Ward Way Unit A","city":"Arvada","state":"CO","zip":"80002-1300","phone":"(303) 420-7979","lat":"39.80027","lng":"-105.138456","highlight":"0","published":"1","dist":6.11175182194,
{"id":"65824","name":"Shaver Ltc Pharmacy Inc","address":"8501 Turnpike Dr","city":"Westminster","state":"CO","zip":"80031    ","phone":"(303) 430-6554","lat":"39.850401","lng":"-105.050039","highlight":"0","published":"1","dist":6.99322417144,
{"id":"2505","name":"CLEARSPRING PHARMACY","address":"8550 W 38TH AVE","city":"WHEAT RIDGE","state":"CO","zip":"80033","phone":"","lat":"39.7693256","lng":"-105.0920970","highlight":"1","published":"1","dist":10.1096806008,
{"id":"18693","name":"EXEMPLA LUTHERAN PHARMACY","address":"8300 WEST 38TH AVE","city":"WHEAT RIDGE","state":"CO","zip":"80033","phone":"","lat":"39.7678050","lng":"-105.0890440","highlight":"0","published":"1","dist":10.358083193,
{"id":"65820","name":"Pioneer Pharmacy Llc","address":"3895 Upham St","city":"Wheatridge","state":"CO","zip":"80033-3032","phone":"(303) 252-7990","lat":"39.7709299","lng":"-105.0779293","highlight":"0","published":"1","dist":10.4162637932,
{"id":"18689","name":"AVISTA FAMILY PHARMACY","address":"90 HEALTH PARK DR","city":"LOUISVILLE","state":"CO","zip":"80027","phone":"","lat":"39.9514810","lng":"-105.1524850","highlight":"0","published":"1","dist":10.8739937254,
{"id":"2569","name":"WHEATRIDGE PROF PHARMACY","address":"6650 W 38TH AVE","city":"WHEAT RIDGE","state":"CO","zip":"80033","phone":"","lat":"39.7691170","lng":"-105.0700720","highlight":"0","published":"1","dist":10.9054255858,
{"id":"65815","name":"Clinica Campesina Family Health Services","address":"1701 W 72nd Ave","city":"Denver","state":"CO","zip":"80221    ","phone":"(303) 412-8180","lat":"39.8274676","lng":"-105.0077835","highlight":"0","published":"1","dist":11.0170728871,
{"id":"65821","name":"Genoa Healthcare Of Co Llc","address":"8989 Huron St Ste 204","city":"Thornton","state":"CO","zip":"80260    ","phone":"(303) 487-1146","lat":"39.8591089","lng":"-104.997231","highlight":"0","published":"1","dist":11.4908474119,
{"id":"65817","name":"Senio Rx Pharmacy Llc","address":"500 S Arthur Ave","city":"Louisville","state":"CO","zip":"80027    ","phone":"(303) 664-0066","lat":"39.9621343","lng":"-105.123744","highlight":"0","published":"1","dist":11.9332006197,
{"id":"2661","name":"BLUE SPRUCE PHARMACY","address":"9485 W COLFAX AVE","city":"LAKEWOOD","state":"CO","zip":"80215","phone":"","lat":"39.7408390","lng":"-105.1030540","highlight":"0","published":"1","dist":12.9276993197,
{"id":"2633","name":"PEOPLES PHARMACY","address":"255 UNION BLVD","city":"LAKEWOOD","state":"CO","zip":"80228","phone":"","lat":"39.7198650","lng":"-105.1333320","highlight":"0","published":"1","dist":15.0260501884,
{"id":"18672","name":"BELMAR PHARMACY","address":"12860 W CEDAR DR","city":"LAKEWOOD","state":"CO","zip":"80228","phone":"","lat":"39.7115260","lng":"-105.1426110","highlight":"0","published":"1","dist":15.9796987917,
{"id":"2620","name":"UNION SQUARE PHARMACY AT BELMAR","address":"8015 W ALAMEDA","city":"LAKEWOOD","state":"CO","zip":"80226","phone":"","lat":"39.7116510","lng":"-105.0867500","highlight":"1","published":"1","dist":16.3959281679,
{"id":"65847","name":"St Joseph Hospital","address":"1825 Marion St","city":"Denver","state":"CO","zip":"80218-1122","phone":"(303) 318-3490","lat":"39.74537","lng":"-104.972737","highlight":"0","published":"1","dist":18.2510082146,
{"id":"18688","name":"ADVANCED CARE PROFESSIONAL PHCY","address":"2789 W ALAMEDA AVE","city":"DENVER","state":"CO","zip":"80219","phone":"","lat":"39.7111901","lng":"-105.0223406","highlight":"0","published":"1","dist":18.5222880482,
{"id":"2628","name":"COLORADO PHARMACY","address":"1245 E COLFAX","city":"DENVER","state":"CO","zip":"80218","phone":"","lat":"39.7401840","lng":"-104.9712570","highlight":"0","published":"1","dist":18.7337957756,
{"id":"2508","name":"CERNELL PHARMACY","address":"2190 E 18TH AVE","city":"DENVER","state":"CO","zip":"80206","phone":"","lat":"39.7445420","lng":"-104.9613460","highlight":"0","published":"1","dist":19.0457094232}],[39.854992,-105.1317431,null]]
[[{"id":"65824","name":"Shaver Ltc Pharmacy Inc","address":"8501 Turnpike Dr","city":"Westminster","state":"CO","zip":"80031    ","phone":"(303) 430-6554","lat":"39.850401","lng":"-105.050039","highlight":"0","published":"1","dist":2.55806436403,
{"id":"65823","name":"Medstuff Inc","address":"10382 Ralston Rd","city":"Arvada","state":"CO","zip":"80004    ","phone":"(303) 403-4142","lat":"39.8117082","lng":"-105.1138913","highlight":"0","published":"1","dist":5.14826206421,
{"id":"65844","name":"Eden International","address":"10955 Westmoor Dr.","city":"Broomfield","state":"CO","zip":"80021    ","phone":"(303) 379-2100","lat":"39.899309","lng":"-105.121179","highlight":"0","published":"1","dist":6.51237149095,
{"id":"65815","name":"Clinica Campesina Family Health Services","address":"1701 W 72nd Ave","city":"Denver","state":"CO","zip":"80221    ","phone":"(303) 412-8180","lat":"39.8274676","lng":"-105.0077835","highlight":"0","published":"1","dist":6.65553034152,
{"id":"65821","name":"Genoa Healthcare Of Co Llc","address":"8989 Huron St Ste 204","city":"Thornton","state":"CO","zip":"80260    ","phone":"(303) 487-1146","lat":"39.8591089","lng":"-104.997231","highlight":"0","published":"1","dist":7.13751083849,
{"id":"65797","name":"Wadsworth Medical Arts Pharmacy Inc","address":"5656 Ward Way Unit A","city":"Arvada","state":"CO","zip":"80002-1300","phone":"(303) 420-7979","lat":"39.80027","lng":"-105.138456","highlight":"0","published":"1","dist":7.44970841118,
{"id":"65820","name":"Pioneer Pharmacy Llc","address":"3895 Upham St","city":"Wheatridge","state":"CO","zip":"80033-3032","phone":"(303) 252-7990","lat":"39.7709299","lng":"-105.0779293","highlight":"0","published":"1","dist":8.79397283739,
{"id":"2505","name":"CLEARSPRING PHARMACY","address":"8550 W 38TH AVE","city":"WHEAT RIDGE","state":"CO","zip":"80033","phone":"","lat":"39.7693256","lng":"-105.0920970","highlight":"1","published":"1","dist":9.02989863161,
{"id":"2569","name":"WHEATRIDGE PROF PHARMACY","address":"6650 W 38TH AVE","city":"WHEAT RIDGE","state":"CO","zip":"80033","phone":"","lat":"39.7691170","lng":"-105.0700720","highlight":"0","published":"1","dist":9.03367083267,
{"id":"18693","name":"EXEMPLA LUTHERAN PHARMACY","address":"8300 WEST 38TH AVE","city":"WHEAT RIDGE","state":"CO","zip":"80033","phone":"","lat":"39.7678050","lng":"-105.0890440","highlight":"0","published":"1","dist":9.17225722543,
{"id":"2661","name":"BLUE SPRUCE PHARMACY","address":"9485 W COLFAX AVE","city":"LAKEWOOD","state":"CO","zip":"80215","phone":"","lat":"39.7408390","lng":"-105.1030540","highlight":"0","published":"1","dist":12.2969124843,
{"id":"18689","name":"AVISTA FAMILY PHARMACY","address":"90 HEALTH PARK DR","city":"LOUISVILLE","state":"CO","zip":"80027","phone":"","lat":"39.9514810","lng":"-105.1524850","highlight":"0","published":"1","dist":12.8672133069,
{"id":"65817","name":"Senio Rx Pharmacy Llc","address":"500 S Arthur Ave","city":"Louisville","state":"CO","zip":"80027    ","phone":"(303) 664-0066","lat":"39.9621343","lng":"-105.123744","highlight":"0","published":"1","dist":13.015079309,
{"id":"65847","name":"St Joseph Hospital","address":"1825 Marion St","city":"Denver","state":"CO","zip":"80218-1122","phone":"(303) 318-3490","lat":"39.74537","lng":"-104.972737","highlight":"0","published":"1","dist":14.8098248039,
{"id":"2633","name":"PEOPLES PHARMACY","address":"255 UNION BLVD","city":"LAKEWOOD","state":"CO","zip":"80228","phone":"","lat":"39.7198650","lng":"-105.1333320","highlight":"0","published":"1","dist":15.1709690616,
{"id":"2628","name":"COLORADO PHARMACY","address":"1245 E COLFAX","city":"DENVER","state":"CO","zip":"80218","phone":"","lat":"39.7401840","lng":"-104.9712570","highlight":"0","published":"1","dist":15.3434437115,
{"id":"2620","name":"UNION SQUARE PHARMACY AT BELMAR","address":"8015 W ALAMEDA","city":"LAKEWOOD","state":"CO","zip":"80226","phone":"","lat":"39.7116510","lng":"-105.0867500","highlight":"1","published":"1","dist":15.3945167257,
{"id":"2508","name":"CERNELL PHARMACY","address":"2190 E 18TH AVE","city":"DENVER","state":"CO","zip":"80206","phone":"","lat":"39.7445420","lng":"-104.9613460","highlight":"0","published":"1","dist":15.5004972522,
{"id":"18688","name":"ADVANCED CARE PROFESSIONAL PHCY","address":"2789 W ALAMEDA AVE","city":"DENVER","state":"CO","zip":"80219","phone":"","lat":"39.7111901","lng":"-105.0223406","highlight":"0","published":"1","dist":16.202315547,
{"id":"18672","name":"BELMAR PHARMACY","address":"12860 W CEDAR DR","city":"LAKEWOOD","state":"CO","zip":"80228","phone":"","lat":"39.7115260","lng":"-105.1426110","highlight":"0","published":"1","dist":16.3006749397}],[39.85,-105.08,null]]
[[{"id":"65797","name":"Wadsworth Medical Arts Pharmacy Inc","address":"5656 Ward Way Unit A","city":"Arvada","state":"CO","zip":"80002-1300","phone":"(303) 420-7979","lat":"39.80027","lng":"-105.138456","highlight":"0","published":"1","dist":7.52281851166,
{"id":"65823","name":"Medstuff Inc","address":"10382 Ralston Rd","city":"Arvada","state":"CO","zip":"80004    ","phone":"(303) 403-4142","lat":"39.8117082","lng":"-105.1138913","highlight":"0","published":"1","dist":8.29301903235,
{"id":"65844","name":"Eden International","address":"10955 Westmoor Dr.","city":"Broomfield","state":"CO","zip":"80021    ","phone":"(303) 379-2100","lat":"39.899309","lng":"-105.121179","highlight":"0","published":"1","dist":8.31759407231,
{"id":"18689","name":"AVISTA FAMILY PHARMACY","address":"90 HEALTH PARK DR","city":"LOUISVILLE","state":"CO","zip":"80027","phone":"","lat":"39.9514810","lng":"-105.1524850","highlight":"0","published":"1","dist":11.728891304,
{"id":"65824","name":"Shaver Ltc Pharmacy Inc","address":"8501 Turnpike Dr","city":"Westminster","state":"CO","zip":"80031    ","phone":"(303) 430-6554","lat":"39.850401","lng":"-105.050039","highlight":"0","published":"1","dist":12.4674209063,
{"id":"2505","name":"CLEARSPRING PHARMACY","address":"8550 W 38TH AVE","city":"WHEAT RIDGE","state":"CO","zip":"80033","phone":"","lat":"39.7693256","lng":"-105.0920970","highlight":"1","published":"1","dist":12.7381957824,
{"id":"18693","name":"EXEMPLA LUTHERAN PHARMACY","address":"8300 WEST 38TH AVE","city":"WHEAT RIDGE","state":"CO","zip":"80033","phone":"","lat":"39.7678050","lng":"-105.0890440","highlight":"0","published":"1","dist":13.0414794969,
{"id":"65820","name":"Pioneer Pharmacy Llc","address":"3895 Upham St","city":"Wheatridge","state":"CO","zip":"80033-3032","phone":"(303) 252-7990","lat":"39.7709299","lng":"-105.0779293","highlight":"0","published":"1","dist":13.4905319524,
{"id":"65817","name":"Senio Rx Pharmacy Llc","address":"500 S Arthur Ave","city":"Louisville","state":"CO","zip":"80027    ","phone":"(303) 664-0066","lat":"39.9621343","lng":"-105.123744","highlight":"0","published":"1","dist":13.7682133658,
{"id":"2569","name":"WHEATRIDGE PROF PHARMACY","address":"6650 W 38TH AVE","city":"WHEAT RIDGE","state":"CO","zip":"80033","phone":"","lat":"39.7691170","lng":"-105.0700720","highlight":"0","published":"1","dist":14.1295410799,
{"id":"2661","name":"BLUE SPRUCE PHARMACY","address":"9485 W COLFAX AVE","city":"LAKEWOOD","state":"CO","zip":"80215","phone":"","lat":"39.7408390","lng":"-105.1030540","highlight":"0","published":"1","dist":14.643025712,
{"id":"2633","name":"PEOPLES PHARMACY","address":"255 UNION BLVD","city":"LAKEWOOD","state":"CO","zip":"80228","phone":"","lat":"39.7198650","lng":"-105.1333320","highlight":"0","published":"1","dist":15.5822367873,
{"id":"18672","name":"BELMAR PHARMACY","address":"12860 W CEDAR DR","city":"LAKEWOOD","state":"CO","zip":"80228","phone":"","lat":"39.7115260","lng":"-105.1426110","highlight":"0","published":"1","dist":16.2150535162,
{"id":"65815","name":"Clinica Campesina Family Health Services","address":"1701 W 72nd Ave","city":"Denver","state":"CO","zip":"80221    ","phone":"(303) 412-8180","lat":"39.8274676","lng":"-105.0077835","highlight":"0","published":"1","dist":16.2962828783,
{"id":"65821","name":"Genoa Healthcare Of Co Llc","address":"8989 Huron St Ste 204","city":"Thornton","state":"CO","zip":"80260    ","phone":"(303) 487-1146","lat":"39.8591089","lng":"-104.997231","highlight":"0","published":"1","dist":16.9952001657,
{"id":"2620","name":"UNION SQUARE PHARMACY AT BELMAR","address":"8015 W ALAMEDA","city":"LAKEWOOD","state":"CO","zip":"80226","phone":"","lat":"39.7116510","lng":"-105.0867500","highlight":"1","published":"1","dist":18.1356269629,
{"id":"18686","name":"FOOTHILLS FAMILY PHARMACY","address":"4745 ARAPAHOE","city":"BOULDER","state":"CO","zip":"80303","phone":"","lat":"40.0148227","lng":"-105.2367117","highlight":"0","published":"1","dist":18.4944113127,
{"id":"18692","name":"ECONO COMP PHARMACY","address":"4760 WALNUT STREET","city":"BOULDEN","state":"CO","zip":"80301","phone":"","lat":"40.0187370","lng":"-105.2410290","highlight":"0","published":"1","dist":18.992955105,
{"id":"65826","name":"Clinica Campesina Family Health Services","address":"2525 13th Street 1st Floor","city":"Boulder","state":"CO","zip":"80304    ","phone":"(303) 665-3036","lat":"40.0239059","lng":"-105.2809879","highlight":"0","published":"1","dist":20.4978845498,
{"id":"65829","name":"Pdc Pharmacy Colorado Inc","address":"2880 Folsom St","city":"Boulder","state":"CO","zip":"80304-3739","phone":"(303) 440-4200","lat":"40.0287511","lng":"-105.2628515","highlight":"0","published":"1","dist":20.5211757008}],[39.8514427,-105.1960795,null]]
[[{"id":"65850","name":"Havana Pharmacy And Medical Supply Llc","address":"1555 S Havana St Unit Hj","city":"Aurora","state":"CO","zip":"80012-5004","phone":"(303) 750-3600","lat":"39.7020217","lng":"-104.8396248","highlight":"0","published":"1","dist":0,
{"id":"2618","name":"FAMILY PHARMACY","address":"1718 S CHAMBERS RD","city":"AURORA","state":"CO","zip":"80017","phone":"","lat":"39.6853105","lng":"-104.8097809","highlight":"0","published":"1","dist":3.15803194866,
{"id":"2586","name":"WINDSOR GARDENS DRUG INC","address":"9660 E ALAMEDA AVE","city":"DENVER","state":"CO","zip":"80247","phone":"","lat":"39.7081860","lng":"-104.8765330","highlight":"0","published":"1","dist":3.23093039557,
{"id":"65848","name":"Pharmacare Llc","address":"9450 E Mississippi Ave Unit C","city":"Denver","state":"CO","zip":"80247-2427","phone":"(303) 755-2000","lat":"39.6963964","lng":"-104.8779093","highlight":"0","published":"1","dist":3.33459543701,
{"id":"65842","name":"Terrascripts Llc","address":"13751 E Yale Ave Unit B","city":"Aurora","state":"CO","zip":"80014-7351","phone":"(303) 745-3000","lat":"39.6679261","lng":"-104.8292757","highlight":"0","published":"1","dist":3.89331601421,
{"id":"2670","name":"MEDSTUFF INC","address":"7950 E MISSISSIPPI AVE","city":"DENVER","state":"CO","zip":"80247","phone":"","lat":"39.6960070","lng":"-104.8958959","highlight":"0","published":"1","dist":4.86048223119,
{"id":"65838","name":"Medstuff Inc","address":"970 S Oneida St Unit 1b","city":"Denver","state":"CO","zip":"80224-1700","phone":"(303) 333-2035","lat":"39.699498","lng":"-104.908638","highlight":"0","published":"1","dist":5.91090880821,
{"id":"2636","name":"GOLDIN PHARMACY AND MEDICAL SUPPLY","address":"909 S ONEIDA ST","city":"DENVER","state":"CO","zip":"80224","phone":"","lat":"39.6997969","lng":"-104.9093980","highlight":"0","published":"1","dist":5.97437467649,
{"id":"65808","name":"Cherry Creek Pharmacy","address":"6336 Leetsdale Dr","city":"Denver","state":"CO","zip":"80224-1261","phone":"(303) 333-2232","lat":"39.703483","lng":"-104.914501","highlight":"0","published":"1","dist":6.40771291962,
{"id":"65836","name":"Metro Community Provider Network Inc","address":"3292 Peoria St","city":"Aurora","state":"CO","zip":"80110    ","phone":"(303) 343-6535","lat":"39.7638448","lng":"-104.84557","highlight":"0","published":"1","dist":6.89318806304,
{"id":"18687","name":"PHARMACY RESOURCES INC","address":"5290 E YALE CIRCLE","city":"DENVER","state":"CO","zip":"80222","phone":"","lat":"39.6682110","lng":"-104.9277900","highlight":"0","published":"1","dist":8.4293051482,
{"id":"18671","name":"PENCOL COMPOUNDING PHARMACY","address":"1325 S COLORADO BLVD","city":"DENVER","state":"CO","zip":"80222","phone":"","lat":"39.6920222","lng":"-104.9407447","highlight":"0","published":"1","dist":8.72267439292,
{"id":"2668","name":"WELLSHIRE PHARMACY","address":"4141 E. DICKENSON PLACE","city":"DENVER","state":"CO","zip":"80222","phone":"","lat":"39.6724460","lng":"-104.9395569","highlight":"0","published":"1","dist":9.16169846847,
{"id":"2657","name":"MHCD PHARMACY","address":"4353 E COLFAX AVE","city":"DENVER","state":"CO","zip":"80220","phone":"","lat":"39.7404269","lng":"-104.9358070","highlight":"0","published":"1","dist":9.26859292576,
{"id":"65795","name":"National Jewish Health Pharmacy","address":"1400 Jackson St","city":"Denver","state":"CO","zip":"80206-2762","phone":"(303) 398-1582","lat":"39.739206","lng":"-104.941874","highlight":"0","published":"1","dist":9.67333178199,
{"id":"18683","name":"CORNELL CENTRUM PHARMACY","address":"8200 E BELLEVIEW","city":"GREENWOOD VILLAGE","state":"CO","zip":"80111","phone":"","lat":"39.6240029","lng":"-104.8931448","highlight":"0","published":"1","dist":9.81064406117,
{"id":"2575","name":"CAPITOL HEIGHTS PHARMACY","address":"1200 MADISON ST","city":"DENVER","state":"CO","zip":"80206","phone":"","lat":"39.7351423","lng":"-104.9461804","highlight":"0","published":"1","dist":9.82972060484,
{"id":"65840","name":"Bonnie Brae Drugstore Llc","address":"2700 E Louisiana Ave #102","city":"Denver","state":"CO","zip":"80210    ","phone":"(303) 722-7892","lat":"39.692798","lng":"-104.954379","highlight":"0","published":"1","dist":9.87139685085,
{"id":"2643","name":"CLEARSPRING PHARMACY","address":"201 UNIVERSITY BLVD","city":"DENVER","state":"CO","zip":"80206","phone":"","lat":"39.7200960","lng":"-104.9598010","highlight":"1","published":"1","dist":10.4744442274,
{"id":"2508","name":"CERNELL PHARMACY","address":"2190 E 18TH AVE","city":"DENVER","state":"CO","zip":"80206","phone":"","lat":"39.7445420","lng":"-104.9613460","highlight":"0","published":"1","dist":11.4335188883}],[39.7020217,-104.8396248,null]]
[[{"id":"65836","name":"Metro Community Provider Network Inc","address":"3292 Peoria St","city":"Aurora","state":"CO","zip":"80110    ","phone":"(303) 343-6535","lat":"39.7638448","lng":"-104.84557","highlight":"0","published":"1","dist":5.11067099389,
{"id":"65850","name":"Havana Pharmacy And Medical Supply Llc","address":"1555 S Havana St Unit Hj","city":"Aurora","state":"CO","zip":"80012-5004","phone":"(303) 750-3600","lat":"39.7020217","lng":"-104.8396248","highlight":"0","published":"1","dist":7.34160039567,
{"id":"2618","name":"FAMILY PHARMACY","address":"1718 S CHAMBERS RD","city":"AURORA","state":"CO","zip":"80017","phone":"","lat":"39.6853105","lng":"-104.8097809","highlight":"0","published":"1","dist":7.90697789766,
{"id":"2586","name":"WINDSOR GARDENS DRUG INC","address":"9660 E ALAMEDA AVE","city":"DENVER","state":"CO","zip":"80247","phone":"","lat":"39.7081860","lng":"-104.8765330","highlight":"0","published":"1","dist":9.20437367733,
{"id":"65848","name":"Pharmacare Llc","address":"9450 E Mississippi Ave Unit C","city":"Denver","state":"CO","zip":"80247-2427","phone":"(303) 755-2000","lat":"39.6963964","lng":"-104.8779093","highlight":"0","published":"1","dist":10.0842415088,
{"id":"65842","name":"Terrascripts Llc","address":"13751 E Yale Ave Unit B","city":"Aurora","state":"CO","zip":"80014-7351","phone":"(303) 745-3000","lat":"39.6679261","lng":"-104.8292757","highlight":"0","published":"1","dist":10.2539887945,
{"id":"2670","name":"MEDSTUFF INC","address":"7950 E MISSISSIPPI AVE","city":"DENVER","state":"CO","zip":"80247","phone":"","lat":"39.6960070","lng":"-104.8958959","highlight":"0","published":"1","dist":11.3362291814,
{"id":"65838","name":"Medstuff Inc","address":"970 S Oneida St Unit 1b","city":"Denver","state":"CO","zip":"80224-1700","phone":"(303) 333-2035","lat":"39.699498","lng":"-104.908638","highlight":"0","published":"1","dist":12.0454888617,
{"id":"2636","name":"GOLDIN PHARMACY AND MEDICAL SUPPLY","address":"909 S ONEIDA ST","city":"DENVER","state":"CO","zip":"80224","phone":"","lat":"39.6997969","lng":"-104.9093980","highlight":"0","published":"1","dist":12.0849119065,
{"id":"65808","name":"Cherry Creek Pharmacy","address":"6336 Leetsdale Dr","city":"Denver","state":"CO","zip":"80224-1261","phone":"(303) 333-2232","lat":"39.703483","lng":"-104.914501","highlight":"0","published":"1","dist":12.2703976355,
{"id":"2657","name":"MHCD PHARMACY","address":"4353 E COLFAX AVE","city":"DENVER","state":"CO","zip":"80220","phone":"","lat":"39.7404269","lng":"-104.9358070","highlight":"0","published":"1","dist":12.8061425162,
{"id":"65795","name":"National Jewish Health Pharmacy","address":"1400 Jackson St","city":"Denver","state":"CO","zip":"80206-2762","phone":"(303) 398-1582","lat":"39.739206","lng":"-104.941874","highlight":"0","published":"1","dist":13.3376941149,
{"id":"2575","name":"CAPITOL HEIGHTS PHARMACY","address":"1200 MADISON ST","city":"DENVER","state":"CO","zip":"80206","phone":"","lat":"39.7351423","lng":"-104.9461804","highlight":"0","published":"1","dist":13.7658960734,
{"id":"18671","name":"PENCOL COMPOUNDING PHARMACY","address":"1325 S COLORADO BLVD","city":"DENVER","state":"CO","zip":"80222","phone":"","lat":"39.6920222","lng":"-104.9407447","highlight":"0","published":"1","dist":14.8506650388,
{"id":"2508","name":"CERNELL PHARMACY","address":"2190 E 18TH AVE","city":"DENVER","state":"CO","zip":"80206","phone":"","lat":"39.7445420","lng":"-104.9613460","highlight":"0","published":"1","dist":14.9356462192,
{"id":"2643","name":"CLEARSPRING PHARMACY","address":"201 UNIVERSITY BLVD","city":"DENVER","state":"CO","zip":"80206","phone":"","lat":"39.7200960","lng":"-104.9598010","highlight":"1","published":"1","dist":15.2475763861,
{"id":"18687","name":"PHARMACY RESOURCES INC","address":"5290 E YALE CIRCLE","city":"DENVER","state":"CO","zip":"80222","phone":"","lat":"39.6682110","lng":"-104.9277900","highlight":"0","published":"1","dist":15.3737162963,
{"id":"2628","name":"COLORADO PHARMACY","address":"1245 E COLFAX","city":"DENVER","state":"CO","zip":"80218","phone":"","lat":"39.7401840","lng":"-104.9712570","highlight":"0","published":"1","dist":15.8218815729,
{"id":"65840","name":"Bonnie Brae Drugstore Llc","address":"2700 E Louisiana Ave #102","city":"Denver","state":"CO","zip":"80210    ","phone":"(303) 722-7892","lat":"39.692798","lng":"-104.954379","highlight":"0","published":"1","dist":15.8542895272,
{"id":"2668","name":"WELLSHIRE PHARMACY","address":"4141 E. DICKENSON PLACE","city":"DENVER","state":"CO","zip":"80222","phone":"","lat":"39.6724460","lng":"-104.9395569","highlight":"0","published":"1","dist":15.8994245274}],[39.7542465,-104.7871004,null]]
[[{"id":"65836","name":"Metro Community Provider Network Inc","address":"3292 Peoria St","city":"Aurora","state":"CO","zip":"80110    ","phone":"(303) 343-6535","lat":"39.7638448","lng":"-104.84557","highlight":"0","published":"1","dist":3.10543536109,
{"id":"2586","name":"WINDSOR GARDENS DRUG INC","address":"9660 E ALAMEDA AVE","city":"DENVER","state":"CO","zip":"80247","phone":"","lat":"39.7081860","lng":"-104.8765330","highlight":"0","published":"1","dist":3.65216987399,
{"id":"65850","name":"Havana Pharmacy And Medical Supply Llc","address":"1555 S Havana St Unit Hj","city":"Aurora","state":"CO","zip":"80012-5004","phone":"(303) 750-3600","lat":"39.7020217","lng":"-104.8396248","highlight":"0","published":"1","dist":4.60428335453,
{"id":"65848","name":"Pharmacare Llc","address":"9450 E Mississippi Ave Unit C","city":"Denver","state":"CO","zip":"80247-2427","phone":"(303) 755-2000","lat":"39.6963964","lng":"-104.8779093","highlight":"0","published":"1","dist":4.94207928681,
{"id":"2670","name":"MEDSTUFF INC","address":"7950 E MISSISSIPPI AVE","city":"DENVER","state":"CO","zip":"80247","phone":"","lat":"39.6960070","lng":"-104.8958959","highlight":"0","published":"1","dist":5.5800098853,
{"id":"65838","name":"Medstuff Inc","address":"970 S Oneida St Unit 1b","city":"Denver","state":"CO","zip":"80224-1700","phone":"(303) 333-2035","lat":"39.699498","lng":"-104.908638","highlight":"0","published":"1","dist":5.90522833454,
{"id":"2636","name":"GOLDIN PHARMACY AND MEDICAL SUPPLY","address":"909 S ONEIDA ST","city":"DENVER","state":"CO","zip":"80224","phone":"","lat":"39.6997969","lng":"-104.9093980","highlight":"0","published":"1","dist":5.92370658894,
{"id":"65808","name":"Cherry Creek Pharmacy","address":"6336 Leetsdale Dr","city":"Denver","state":"CO","zip":"80224-1261","phone":"(303) 333-2232","lat":"39.703483","lng":"-104.914501","highlight":"0","published":"1","dist":5.94222494739,
{"id":"2657","name":"MHCD PHARMACY","address":"4353 E COLFAX AVE","city":"DENVER","state":"CO","zip":"80220","phone":"","lat":"39.7404269","lng":"-104.9358070","highlight":"0","published":"1","dist":6.22864334899,
{"id":"65795","name":"National Jewish Health Pharmacy","address":"1400 Jackson St","city":"Denver","state":"CO","zip":"80206-2762","phone":"(303) 398-1582","lat":"39.739206","lng":"-104.941874","highlight":"0","published":"1","dist":6.74627793014,
{"id":"2575","name":"CAPITOL HEIGHTS PHARMACY","address":"1200 MADISON ST","city":"DENVER","state":"CO","zip":"80206","phone":"","lat":"39.7351423","lng":"-104.9461804","highlight":"0","published":"1","dist":7.12992178144,
{"id":"2618","name":"FAMILY PHARMACY","address":"1718 S CHAMBERS RD","city":"AURORA","state":"CO","zip":"80017","phone":"","lat":"39.6853105","lng":"-104.8097809","highlight":"0","published":"1","dist":7.53560784987,
{"id":"2508","name":"CERNELL PHARMACY","address":"2190 E 18TH AVE","city":"DENVER","state":"CO","zip":"80206","phone":"","lat":"39.7445420","lng":"-104.9613460","highlight":"0","published":"1","dist":8.43081694882,
{"id":"65842","name":"Terrascripts Llc","address":"13751 E Yale Ave Unit B","city":"Aurora","state":"CO","zip":"80014-7351","phone":"(303) 745-3000","lat":"39.6679261","lng":"-104.8292757","highlight":"0","published":"1","dist":8.44707436292,
{"id":"18671","name":"PENCOL COMPOUNDING PHARMACY","address":"1325 S COLORADO BLVD","city":"DENVER","state":"CO","zip":"80222","phone":"","lat":"39.6920222","lng":"-104.9407447","highlight":"0","published":"1","dist":8.48068466138,
{"id":"2643","name":"CLEARSPRING PHARMACY","address":"201 UNIVERSITY BLVD","city":"DENVER","state":"CO","zip":"80206","phone":"","lat":"39.7200960","lng":"-104.9598010","highlight":"1","published":"1","dist":8.55203692829,
{"id":"2628","name":"COLORADO PHARMACY","address":"1245 E COLFAX","city":"DENVER","state":"CO","zip":"80218","phone":"","lat":"39.7401840","lng":"-104.9712570","highlight":"0","published":"1","dist":9.25906544084,
{"id":"65840","name":"Bonnie Brae Drugstore Llc","address":"2700 E Louisiana Ave #102","city":"Denver","state":"CO","zip":"80210    ","phone":"(303) 722-7892","lat":"39.692798","lng":"-104.954379","highlight":"0","published":"1","dist":9.37529613301,
{"id":"65847","name":"St Joseph Hospital","address":"1825 Marion St","city":"Denver","state":"CO","zip":"80218-1122","phone":"(303) 318-3490","lat":"39.74537","lng":"-104.972737","highlight":"0","published":"1","dist":9.40876373616,
{"id":"18687","name":"PHARMACY RESOURCES INC","address":"5290 E YALE CIRCLE","city":"DENVER","state":"CO","zip":"80222","phone":"","lat":"39.6682110","lng":"-104.9277900","highlight":"0","published":"1","dist":9.65843982081}],[39.7393313,-104.8629746,null]]
[[{"id":"2618","name":"FAMILY PHARMACY","address":"1718 S CHAMBERS RD","city":"AURORA","state":"CO","zip":"80017","phone":"","lat":"39.6853105","lng":"-104.8097809","highlight":"0","published":"1","dist":5.08820765543,
{"id":"65842","name":"Terrascripts Llc","address":"13751 E Yale Ave Unit B","city":"Aurora","state":"CO","zip":"80014-7351","phone":"(303) 745-3000","lat":"39.6679261","lng":"-104.8292757","highlight":"0","published":"1","dist":5.75403885545,
{"id":"65850","name":"Havana Pharmacy And Medical Supply Llc","address":"1555 S Havana St Unit Hj","city":"Aurora","state":"CO","zip":"80012-5004","phone":"(303) 750-3600","lat":"39.7020217","lng":"-104.8396248","highlight":"0","published":"1","dist":8.2431834026,
{"id":"2502","name":"CENTENNIAL MEDICAL PLAZA","address":"14200 E ARAPAHOE RD","city":"CENTENNIAL","state":"CO","zip":"80112","phone":"","lat":"39.5936740","lng":"-104.8228199","highlight":"0","published":"1","dist":8.61055327539,
{"id":"65849","name":"Sirona Infusion Llc","address":"12503 E Euclid Dr Ste 80","city":"Centennial","state":"CO","zip":"80111-6400","phone":"(303) 517-0583","lat":"39.5956856","lng":"-104.8426755","highlight":"0","published":"1","dist":9.54819551669,
{"id":"18680","name":"WELLDYNERX","address":"7472 S TUCSON WAY","city":"CENTENNIAL","state":"CO","zip":"80112","phone":"","lat":"39.5822759","lng":"-104.8380905","highlight":"0","published":"1","dist":10.4095732201,
{"id":"65848","name":"Pharmacare Llc","address":"9450 E Mississippi Ave Unit C","city":"Denver","state":"CO","zip":"80247-2427","phone":"(303) 755-2000","lat":"39.6963964","lng":"-104.8779093","highlight":"0","published":"1","dist":10.7364435262,
{"id":"2586","name":"WINDSOR GARDENS DRUG INC","address":"9660 E ALAMEDA AVE","city":"DENVER","state":"CO","zip":"80247","phone":"","lat":"39.7081860","lng":"-104.8765330","highlight":"0","published":"1","dist":11.2411766412,
{"id":"18683","name":"CORNELL CENTRUM PHARMACY","address":"8200 E BELLEVIEW","city":"GREENWOOD VILLAGE","state":"CO","zip":"80111","phone":"","lat":"39.6240029","lng":"-104.8931448","highlight":"0","published":"1","dist":11.647685707,
{"id":"2670","name":"MEDSTUFF INC","address":"7950 E MISSISSIPPI AVE","city":"DENVER","state":"CO","zip":"80247","phone":"","lat":"39.6960070","lng":"-104.8958959","highlight":"0","published":"1","dist":12.1380970233,
{"id":"2658","name":"CROWN POINT PHARMACY","address":"9397 CROWN CREST BLVD","city":"PARKER","state":"CO","zip":"80138","phone":"","lat":"39.5465292","lng":"-104.7649977","highlight":"0","published":"1","dist":12.2110296662,
{"id":"65818","name":"Health Trans Pharmacy","address":"8300 E Maplewood Ave","city":"Greenwood Village","state":"CO","zip":"80111    ","phone":"(877) 839-8121","lat":"39.6050613","lng":"-104.8923967","highlight":"0","published":"1","dist":12.4044366546,
{"id":"65835","name":"Qualmed Pharmacy Inc","address":"14 Inverness Dr E Ste H140","city":"Englewood","state":"CO","zip":"80112-5646","phone":"(303) 790-8200","lat":"39.570569","lng":"-104.861782","highlight":"0","published":"1","dist":12.7068343392,
{"id":"65838","name":"Medstuff Inc","address":"970 S Oneida St Unit 1b","city":"Denver","state":"CO","zip":"80224-1700","phone":"(303) 333-2035","lat":"39.699498","lng":"-104.908638","highlight":"0","published":"1","dist":13.2948666393,
{"id":"2636","name":"GOLDIN PHARMACY AND MEDICAL SUPPLY","address":"909 S ONEIDA ST","city":"DENVER","state":"CO","zip":"80224","phone":"","lat":"39.6997969","lng":"-104.9093980","highlight":"0","published":"1","dist":13.3674967429,
{"id":"2639","name":"PARKER PHARMACY","address":"10371 PARK GLENN WAY","city":"PARKER","state":"CO","zip":"80138","phone":"","lat":"39.5341522","lng":"-104.7667430","highlight":"0","published":"1","dist":13.5892310492,
{"id":"65822","name":"Caremax Medical Resources Llc","address":"373 Inverness Parkway","city":"Centennial","state":"CO","zip":"80112    ","phone":"(303) 662-8383","lat":"39.560726","lng":"-104.8665819","highlight":"0","published":"1","dist":13.8066497509,
{"id":"65836","name":"Metro Community Provider Network Inc","address":"3292 Peoria St","city":"Aurora","state":"CO","zip":"80110    ","phone":"(303) 343-6535","lat":"39.7638448","lng":"-104.84557","highlight":"0","published":"1","dist":13.8515286765,
{"id":"65816","name":"Browns Compounding Center Inc","address":"10259 S Parker Rd","city":"Parker","state":"CO","zip":"80134    ","phone":"(303) 805-9543","lat":"39.5312077","lng":"-104.767534","highlight":"0","published":"1","dist":13.9179971208,
{"id":"65808","name":"Cherry Creek Pharmacy","address":"6336 Leetsdale Dr","city":"Denver","state":"CO","zip":"80224-1261","phone":"(303) 333-2232","lat":"39.703483","lng":"-104.914501","highlight":"0","published":"1","dist":13.924331259}],[39.6563415,-104.7637619,null]]
